,City,Latitude,Longitude,Max Temp,Humidity,Cloudiness,Wind Speed,Country,Date
0,Busselton,-33.65,115.33,93.99,9,4,5.68,AU,1607657665
1,Tuktoyaktuk,69.45,-133.04,-9.4,76,75,11.41,CA,1607657665
2,Mar del Plata,-38.0,-57.56,73.99,69,0,11.41,AR,1607657429
3,Punta Arenas,-53.15,-70.92,44.6,81,0,5.82,CL,1607657665
4,Ushuaia,-54.8,-68.3,50.0,76,75,4.92,AR,1607657666
5,Karratha,-20.74,116.85,73.65,85,100,19.62,AU,1607657605
6,Nanortalik,60.14,-45.24,24.98,82,0,5.17,GL,1607657666
7,Kavieng,-2.57,150.8,82.96,76,100,10.16,PG,1607657666
8,Ust-Tsilma,65.44,52.15,17.83,94,81,6.64,RU,1607657666
9,Saint Paul Harbor,57.79,-152.41,19.4,85,1,5.82,US,1607657667
10,Sorrento,40.63,14.37,48.99,81,75,6.93,IT,1607657667
11,Cherskiy,68.75,161.3,7.18,85,100,8.21,RU,1607657667
12,Hermanus,-34.42,19.23,57.99,94,99,9.17,ZA,1607657667
13,Nikolskoye,59.7,30.79,17.01,78,0,8.95,RU,1607657668
14,Challans,46.84,-1.87,54.0,100,90,11.41,FR,1607657668
15,Tasiilaq,65.61,-37.64,24.8,62,98,4.7,GL,1607657668
16,Saint-Joseph,-21.37,55.62,77.0,57,0,20.8,RE,1607657668
17,Souillac,-20.52,57.52,77.0,65,20,8.05,MU,1607657668
18,Ayagoz,47.97,80.44,5.56,94,99,7.7,KZ,1607657668
19,Hithadhoo,-0.6,73.08,82.15,75,6,12.97,MV,1607657669
20,Goderich,43.75,-81.72,37.4,86,91,9.17,CA,1607657562
21,Mahébourg,-20.41,57.7,77.0,65,20,8.05,MU,1607657669
22,Toyooka,35.53,134.83,55.4,71,75,3.36,JP,1607657669
23,Shingū,33.73,135.98,62.6,45,40,3.36,JP,1607657426
24,New Norfolk,-42.78,147.06,72.0,35,0,1.99,AU,1607657669
25,Qaanaaq,77.48,-69.36,16.74,93,100,8.5,GL,1607657669
26,Bluff,-46.6,168.33,48.0,85,100,18.01,NZ,1607657670
27,Rikitea,-23.12,-134.97,77.22,79,60,14.23,PF,1607657670
28,Dauriya,49.93,116.87,-2.69,87,0,10.31,RU,1607657670
29,Cape Town,-33.93,18.42,63.0,87,40,4.7,ZA,1607657383
30,Port Alfred,-33.59,26.89,68.92,88,78,3.74,ZA,1607657670
31,Vaini,-21.2,-175.2,84.2,79,20,11.41,TO,1607657670
32,Tuatapere,-46.13,167.68,48.0,85,100,18.01,NZ,1607657671
33,Longyearbyen,78.22,15.64,14.0,66,75,10.29,SJ,1607657671
34,Carnarvon,-24.87,113.63,80.6,78,78,19.46,AU,1607657671
35,Pevek,69.7,170.31,7.84,88,79,11.18,RU,1607657671
36,Tiksi,71.69,128.87,-27.54,85,94,7.61,RU,1607657671
37,Sabha,27.04,14.43,46.78,56,100,2.46,LY,1607657671
38,Aden,12.78,45.04,77.4,69,14,9.55,YE,1607657523
39,Avarua,-21.21,-159.78,80.6,83,64,13.87,CK,1607657672
40,East London,-33.02,27.91,64.4,100,75,2.24,ZA,1607657672
41,Krasnyy Chikoy,50.36,108.75,-0.51,85,48,0.85,RU,1607657672
42,Rockhampton,-23.38,150.5,86.0,35,40,16.11,AU,1607657422
43,Albany,42.6,-73.97,36.0,81,13,2.8,US,1607657556
44,Mataura,-46.19,168.86,48.0,85,81,18.01,NZ,1607657672
45,Verkhnevilyuysk,63.45,120.32,-30.95,84,97,2.71,RU,1607657672
46,Kumbo,6.2,10.67,60.49,61,94,2.93,CM,1607657673
47,Airai,-8.93,125.41,75.61,78,91,2.19,TL,1607657673
48,Sistranda,63.73,8.83,39.2,60,0,29.97,NO,1607657673
49,Hobart,-42.88,147.33,72.0,51,20,18.34,AU,1607657573
50,Berlevåg,70.86,29.09,33.78,90,51,15.08,NO,1607657673
51,Bambous Virieux,-20.34,57.76,79.0,65,20,8.05,MU,1607657673
52,Bama,11.52,13.69,68.58,43,4,5.32,NG,1607657674
53,Roebourne,-20.78,117.13,72.9,89,100,21.94,AU,1607657674
54,La Palma,33.85,-118.05,55.99,76,1,4.14,US,1607657674
55,Provideniya,64.38,-173.3,14.0,72,90,20.13,RU,1607657674
56,Simao,22.79,100.97,66.78,60,35,3.53,CN,1607657674
57,Thompson,55.74,-97.86,-2.2,84,40,3.36,CA,1607657675
58,Priekule,56.45,21.59,28.4,86,100,9.17,LV,1607657675
59,Leningradskiy,69.38,178.42,0.61,87,0,8.97,RU,1607657675
60,Chokurdakh,70.63,147.92,-29.92,85,92,4.45,RU,1607657675
61,Kruisfontein,-34.0,24.73,64.0,96,85,1.01,ZA,1607657675
62,Eydhafushi,5.1,73.07,82.67,68,79,3.4,MV,1607657675
63,Taltal,-25.4,-70.48,59.59,77,40,1.57,CL,1607657676
64,Vao,-22.67,167.48,77.94,86,90,20.51,NC,1607657676
65,Lebu,-37.62,-73.65,53.01,89,10,4.47,CL,1607657676
66,Dikson,73.51,80.55,-7.78,88,100,26.19,RU,1607657676
67,Newport,51.59,-3.0,48.99,90,60,4.0,GB,1607657676
68,Ferrol,43.48,-8.24,60.01,92,100,5.99,ES,1607657677
69,Esperance,-33.87,121.9,73.4,60,90,12.75,AU,1607657677
70,Celestún,20.87,-90.4,69.24,75,62,13.38,MX,1607657677
71,Katsuura,35.13,140.3,55.99,68,97,4.0,JP,1607657677
72,Bredasdorp,-34.53,20.04,59.0,87,100,3.36,ZA,1607657677
73,Byron Bay,-28.65,153.62,68.0,82,90,6.93,AU,1607657677
74,Chapais,49.78,-74.85,23.0,92,90,6.93,CA,1607657566
75,Boyuibe,-20.42,-63.28,70.63,62,0,7.52,BO,1607657678
76,Ossora,59.24,163.07,27.0,95,100,19.75,RU,1607657678
77,Clyde River,70.47,-68.59,6.8,92,75,3.36,CA,1607657678
78,Saint-Philippe,-21.36,55.77,77.0,57,0,20.8,RE,1607657678
79,Boueni,-12.9,45.08,77.0,94,40,3.36,YT,1607657678
80,Djibouti,11.5,42.5,73.4,83,1,10.87,DJ,1607657679
81,Norman Wells,65.28,-126.83,1.4,77,75,3.36,CA,1607657679
82,Bosaso,11.28,49.18,76.1,51,45,9.73,SO,1607657679
83,Hofn,64.25,-15.21,43.25,93,100,17.94,IS,1607657679
84,Saint George,37.1,-113.58,46.99,33,1,3.36,US,1607657679
85,Viranşehir,37.24,39.76,42.67,64,0,4.68,TR,1607657679
86,Cabo San Lucas,22.89,-109.91,73.99,88,40,8.05,MX,1607657679
87,Butaritari,3.07,172.79,81.93,77,79,10.33,KI,1607657680
88,Alofi,-19.06,-169.92,82.4,74,75,21.92,NU,1607657680
89,Lompoc,34.64,-120.46,48.99,93,40,6.78,US,1607657680
90,Ribeira Grande,38.52,-28.7,63.73,90,92,20.83,PT,1607657680
91,Bay-Khaak,51.17,94.5,0.54,91,100,4.99,RU,1607657680
92,Mayna,54.11,47.62,7.47,94,29,4.16,RU,1607657680
93,Price,39.6,-110.81,24.8,45,1,6.93,US,1607657431
94,Okhotsk,59.38,143.3,-10.98,83,0,16.49,RU,1607657681
95,Klyuchi,52.27,79.17,1.62,94,77,7.18,RU,1607657681
96,Pedersore,63.65,22.68,28.99,86,75,6.93,FI,1607657681
97,Yellowknife,62.46,-114.35,-5.8,76,20,6.93,CA,1607657681
98,Fort Frances,48.6,-93.4,30.99,92,90,6.93,CA,1607657681
99,Seoul,37.57,126.98,48.2,61,75,6.04,KR,1607657404
100,Nerchinskiy Zavod,51.31,119.61,-7.55,85,70,2.19,RU,1607657682
101,Jamestown,42.1,-79.24,34.0,97,1,6.93,US,1607657682
102,Gamba,-2.65,10.0,75.78,91,100,2.26,GA,1607657682
103,Arraial do Cabo,-22.97,-42.03,73.18,86,96,4.23,BR,1607657682
104,Santa Cruz de la Sierra,-17.8,-63.17,75.2,78,1,6.93,BO,1607657456
105,Plettenberg Bay,-34.05,23.37,63.09,84,85,2.71,ZA,1607657683
106,Castro,-24.79,-50.01,59.04,94,0,5.32,BR,1607657587
107,Saskylakh,71.92,114.08,-19.16,86,100,12.1,RU,1607657683
108,San Cristobal,7.77,-72.22,65.1,92,41,2.26,VE,1607657683
109,Yar-Sale,66.83,70.83,3.09,94,100,14.05,RU,1607657683
110,Acaraú,-2.89,-40.12,77.45,85,36,11.59,BR,1607657683
111,Ponta do Sol,32.67,-17.1,59.0,82,20,5.82,PT,1607657683
112,Hasaki,35.73,140.83,57.0,71,75,4.7,JP,1607657684
113,Vila Franca do Campo,37.72,-25.43,62.6,93,75,12.75,PT,1607657684
114,Salamiyah,35.01,37.05,48.47,74,0,4.41,SY,1607657684
115,Saint-Ambroise,48.55,-71.33,27.0,92,89,1.12,CA,1607657684
116,Laas,46.62,10.7,28.99,85,5,1.12,IT,1607657684
117,Ordynskoye,54.37,81.9,2.66,93,98,7.23,RU,1607657684
118,Pathein,16.78,94.73,80.31,61,22,6.15,MM,1607657685
119,Kaitangata,-46.28,169.85,57.99,47,84,15.01,NZ,1607657685
120,Alto Araguaia,-17.31,-53.22,67.42,92,100,10.07,BR,1607657685
121,Harper,4.38,-7.72,78.37,85,94,8.32,LR,1607657685
122,Hong Kong,22.29,114.16,72.0,80,18,1.99,HK,1607657560
123,Ahipara,-35.17,173.17,66.31,69,100,10.47,NZ,1607657685
124,Muravlenko,63.79,74.52,-12.15,89,61,6.38,RU,1607657685
125,Upernavik,72.79,-56.15,23.16,90,100,5.06,GL,1607657685
126,Ailigandí,9.23,-78.02,80.58,82,65,13.76,PA,1607657686
127,Atuona,-9.8,-139.03,79.23,76,9,19.71,PF,1607657686
128,Brae,60.4,-1.35,44.6,87,100,38.03,GB,1607657686
129,Novooleksiyivka,46.23,34.64,38.73,86,100,21.23,UA,1607657686
130,Merauke,-8.47,140.33,84.96,70,45,6.6,ID,1607657686
131,Port Alberni,49.24,-124.8,39.99,97,100,1.66,CA,1607657687
132,Puerto Ayora,-0.74,-90.35,73.99,89,49,4.0,EC,1607657687
133,Etchoropo,26.77,-109.67,69.01,72,11,4.21,MX,1607657687
134,Itarema,-2.92,-39.92,77.83,83,54,11.63,BR,1607657687
135,Srednekolymsk,67.45,153.68,-18.49,88,100,5.88,RU,1607657687
136,Ancud,-41.87,-73.82,52.0,81,20,5.82,CL,1607657687
137,Chui,-33.7,-53.46,67.26,81,0,10.69,UY,1607657687
138,Lüderitz,-26.65,15.16,58.37,86,0,10.02,NA,1607657688
139,Nioro,13.35,-15.75,71.19,28,14,4.65,GM,1607657688
140,Sitka,57.05,-135.33,37.4,74,40,6.62,US,1607657688
141,Broome,42.25,-75.83,32.0,86,1,3.36,US,1607657520
142,Tshikapa,-6.42,20.8,68.54,94,78,1.41,CD,1607657688
143,Palana,59.12,159.97,17.31,95,100,3.65,RU,1607657689
144,Hilo,19.73,-155.09,78.8,65,20,10.29,US,1607657413
145,Kumluca,36.37,30.29,57.2,69,34,3.18,TR,1607657689
146,Kamiiso,41.82,140.65,42.8,60,75,4.7,JP,1607657689
147,Farīdpur,23.6,89.83,66.2,88,75,4.12,BD,1607657689
148,Pinkafeld,47.37,16.12,34.0,96,93,2.93,AT,1607657690
149,Henties Bay,-22.12,14.28,59.67,90,35,2.35,NA,1607657690
150,Kapaa,22.08,-159.32,80.6,69,40,8.05,US,1607657690
151,Adiaké,5.29,-3.3,80.6,88,40,10.29,CI,1607657690
152,Florø,61.6,5.03,44.6,52,95,19.46,NO,1607657690
153,Burns Lake,54.23,-125.75,26.6,92,100,1.12,CA,1607657403
154,Faanui,-16.48,-151.75,80.33,75,100,16.04,PF,1607657691
155,Athabasca,54.72,-113.29,19.4,92,0,4.7,CA,1607657403
156,Ostrovnoy,68.05,39.51,29.59,96,98,14.41,RU,1607657691
157,Ugoofaaru,5.67,73.0,82.6,70,78,5.73,MV,1607657691
158,Port Lincoln,-34.73,135.87,67.71,49,97,16.64,AU,1607657691
159,Anshun,26.25,105.93,46.15,93,100,3.89,CN,1607657691
160,Port Elizabeth,-33.92,25.57,64.4,93,90,3.36,ZA,1607657692
161,Homer,59.64,-151.55,27.0,92,1,3.69,US,1607657588
162,Hervey Bay,-25.3,152.85,80.01,62,96,8.01,AU,1607657692
163,Grand Gaube,-20.01,57.66,79.0,64,2,7.0,MU,1607657692
164,Jadu,31.95,12.03,46.87,51,30,21.32,LY,1607657692
165,Tutóia,-2.76,-42.27,80.26,78,72,13.8,BR,1607657692
166,Trairi,-3.28,-39.27,79.14,80,100,10.25,BR,1607657693
167,Vestmannaeyjar,63.44,-20.27,44.73,88,100,15.03,IS,1607657693
168,Moerai,-22.43,-151.33,80.71,69,8,7.47,PF,1607657693
169,Guerrero Negro,27.98,-114.06,60.44,80,0,13.09,MX,1607657693
170,Havøysund,71.0,24.66,32.0,82,0,8.05,NO,1607657693
171,Nyurba,63.28,118.33,-28.14,85,100,2.55,RU,1607657693
172,Puerto del Rosario,28.5,-13.86,68.0,72,90,17.22,ES,1607657694
173,Mossamedes,-15.2,12.15,64.15,80,84,6.58,AO,1607657694
174,Narsaq,60.92,-46.05,14.0,40,0,3.36,GL,1607657694
175,Asău,46.43,26.4,33.8,100,75,2.24,RO,1607657694
176,Lehola,59.29,24.33,18.0,85,90,8.05,EE,1607657694
177,Adrar,20.5,-10.07,58.1,29,56,9.82,MR,1607657695
178,Antofagasta,-23.65,-70.4,62.6,82,20,11.41,CL,1607657534
179,Havre-St-Pierre,50.23,-63.6,24.8,92,90,3.36,CA,1607657695
180,Puerto El Triunfo,13.28,-88.55,73.4,78,0,4.7,SV,1607657695
181,Jalu,29.03,21.55,45.61,78,71,2.19,LY,1607657695
182,Sinnamary,5.38,-52.95,77.61,87,18,8.48,GF,1607657696
183,Bonthe,7.53,-12.51,78.64,86,14,5.95,SL,1607657696
184,Barrow,71.29,-156.79,-5.8,76,90,11.41,US,1607657696
185,Kahului,20.89,-156.47,84.2,51,40,8.05,US,1607657480
186,Christchurch,-43.53,172.63,59.0,47,74,18.34,NZ,1607657655
187,Cabedelo,-6.98,-34.83,73.4,94,20,4.7,BR,1607657551
188,Freeport,40.66,-73.58,39.2,69,1,5.44,US,1607657633
189,Palmer,42.16,-72.33,30.0,92,20,3.02,US,1607657697
190,George Town,5.41,100.34,86.0,70,20,6.93,MY,1607657697
191,Sobolevo,54.43,31.9,26.85,94,100,14.85,RU,1607657697
192,Ribeira Brava,32.65,-17.07,59.0,82,20,5.82,PT,1607657697
193,Te Anau,-45.42,167.72,43.11,91,99,8.12,NZ,1607657697
194,Vanimo,-2.67,141.3,85.62,66,99,3.56,PG,1607657697
195,Omagh,54.6,-7.3,45.46,95,100,4.0,GB,1607657566
196,Bengkulu,-3.8,102.27,82.69,70,89,12.1,ID,1607657698
197,San Patricio,28.02,-97.52,66.2,88,20,11.41,US,1607657698
198,Teahupoo,-17.83,-149.27,82.4,51,75,17.22,PF,1607657698
199,Lokoja,7.8,6.74,76.17,85,98,3.85,NG,1607657698
200,Tongliao,43.61,122.27,14.34,86,32,4.9,CN,1607657698
201,Faya,18.39,42.45,48.2,87,0,1.25,SA,1607657698
202,Torbay,47.67,-52.73,33.01,94,90,9.17,CA,1607657699
203,Hoquiam,46.98,-123.89,44.01,93,90,7.94,US,1607657599
204,Doha,25.29,51.53,66.2,63,0,4.7,QA,1607657699
205,Tyler,32.35,-95.3,62.6,67,1,9.17,US,1607657487
206,Inuvik,68.35,-133.72,-4.0,76,100,8.05,CA,1607657682
207,Brownwood,31.71,-98.99,62.6,45,1,8.05,US,1607657700
208,Mandalgovi,45.76,106.27,4.42,93,93,3.27,MN,1607657700
209,Marabba,12.35,32.18,70.5,43,27,6.49,SD,1607657700
210,Constitución,-35.33,-72.42,52.02,78,0,7.18,CL,1607657442
211,Lata,40.16,-8.33,57.99,97,100,5.99,PT,1607657700
212,Abu Samrah,35.3,37.18,48.02,78,0,3.4,SY,1607657700
213,Vryburg,-26.96,24.73,70.27,33,0,5.93,ZA,1607657701
214,Jutaí,-5.18,-68.9,74.39,96,98,1.79,BR,1607657701
215,Fortuna,40.6,-124.16,46.0,94,44,2.3,US,1607657701
216,Khatanga,71.97,102.5,-33.14,84,97,7.65,RU,1607657701
217,Comodoro Rivadavia,-45.87,-67.5,62.6,45,0,16.11,AR,1607657571
218,Codrington,-38.27,141.97,62.15,62,0,18.45,AU,1607657702
219,Slaný,50.23,14.09,34.0,100,90,5.82,CZ,1607657702
220,São João da Barra,-21.64,-41.05,71.26,92,96,2.15,BR,1607657702
221,Sorong,-0.88,131.25,84.67,72,5,8.75,ID,1607657703
222,Natchitoches,31.77,-93.13,53.6,81,1,6.98,US,1607657532
223,Angoram,-4.06,144.07,82.44,74,100,3.0,PG,1607657704
224,Tombouctou,20.0,-3.0,59.07,28,78,12.75,ML,1607657704
225,Poum,-20.23,164.02,81.54,77,100,14.03,NC,1607657704
226,Pisco,-13.7,-76.22,64.4,93,0,6.93,PE,1607657704
227,Grindavik,63.84,-22.43,41.0,86,90,11.41,IS,1607657705
228,Weston,26.1,-80.4,62.6,67,90,3.36,US,1607657488
229,Taoudenni,22.68,-3.98,56.86,34,32,11.68,ML,1607657705
230,Xiongzhou,25.12,114.3,69.76,47,39,3.6,CN,1607657705
231,Puerto Escondido,15.85,-97.07,77.0,78,75,3.36,MX,1607657706
232,Invermere,50.52,-116.04,28.0,93,100,0.36,CA,1607657706
233,Ilulissat,69.22,-51.1,19.4,41,100,14.99,GL,1607657706
234,Otukpo,7.19,8.13,75.18,85,68,4.97,NG,1607657706
235,Pangnirtung,66.15,-65.71,10.96,82,74,5.06,CA,1607657707
236,Lorengau,-2.02,147.27,84.43,73,100,6.24,PG,1607657707
237,Gwanda,-20.93,29.0,71.17,76,33,5.88,ZW,1607657707
238,Paramonga,-10.67,-77.83,66.31,86,100,7.16,PE,1607657476
239,Bethel,41.37,-73.41,30.99,86,1,1.32,US,1607657707
240,Lagoa,39.05,-27.98,63.57,91,22,25.5,PT,1607657708
241,Cravo Norte,6.3,-70.2,74.66,94,0,5.26,CO,1607657709
242,Omboué,-1.57,9.26,76.66,89,100,5.91,GA,1607657709
243,Trincomalee,8.57,81.23,79.92,72,31,11.5,LK,1607657710
244,Pitkyaranta,61.57,31.48,26.51,93,20,11.3,RU,1607657710
245,Masuguru,-11.37,38.42,76.15,83,64,5.61,TZ,1607657710
246,Ambilobe,-13.2,49.05,75.99,85,100,1.66,MG,1607657711
247,Saldanha,-33.01,17.94,59.0,82,100,2.24,ZA,1607657711
248,Baghdad,33.34,44.4,44.6,81,0,5.82,IQ,1607657462
249,Morón,-34.65,-58.62,84.99,44,40,7.0,AR,1607657712
250,Margate,51.38,1.39,46.99,89,100,5.01,GB,1607657712
251,Tepic,21.5,-104.9,64.0,76,100,1.68,MX,1607657712
252,Soyo,-6.13,12.37,77.72,88,100,6.69,AO,1607657712
253,São Filipe,14.9,-24.5,73.67,71,72,8.25,CV,1607657713
254,Mount Gambier,-37.83,140.77,71.6,40,0,18.34,AU,1607657713
255,Agutaya,11.15,120.94,82.65,81,44,11.92,PH,1607657713
256,Belmonte,-15.86,-38.88,75.2,83,20,6.93,BR,1607657713
257,Mgandu,-5.95,34.13,62.85,91,100,1.3,TZ,1607657714
258,Bondo,3.81,23.69,68.94,93,81,1.48,CD,1607657714
259,Jacareacanga,-6.22,-57.75,73.51,95,100,1.25,BR,1607657714
260,Redlands,34.06,-117.18,55.4,66,5,0.94,US,1607657714
261,Blackfoot,43.19,-112.34,23.0,76,53,2.39,US,1607657526
262,Vilhena,-12.74,-60.15,67.39,100,100,4.29,BR,1607657533
263,Charters Towers,-20.1,146.27,92.26,27,96,14.61,AU,1607657715
264,Mocuba,-16.84,36.99,73.65,95,100,1.79,MZ,1607657715
265,Sicuani,-14.27,-71.23,50.14,66,76,3.65,PE,1607657715
266,Petropavl,54.88,69.16,19.4,92,90,4.47,KZ,1607657715
267,Tazovsky,67.47,78.7,-16.91,88,100,9.08,RU,1607657715
268,Nome,64.5,-165.41,1.4,70,1,6.93,US,1607657551
269,Arrondissement de Perpignan,42.75,2.75,42.01,80,0,2.24,FR,1607657716
270,Xapuri,-10.65,-68.5,71.46,98,100,0.22,BR,1607657716
271,Kupang,-10.17,123.58,89.6,62,20,11.41,ID,1607657716
272,Akhisar,38.92,27.84,49.24,85,75,3.51,TR,1607657716
273,Samarai,-10.62,150.67,83.64,71,42,8.46,PG,1607657716
274,Young,-32.68,-57.63,72.0,45,0,9.93,UY,1607657716
275,Yulara,-25.24,130.99,80.6,42,90,16.11,AU,1607657716
276,Gizo Government Station,-8.1,156.84,85.39,61,26,6.78,SB,1607657717
277,Lukulu,-14.37,23.24,65.37,96,98,3.85,ZM,1607657717
278,Abu Dhabi,24.47,54.37,66.2,88,20,2.24,AE,1607657546
279,Bonavista,48.65,-53.11,33.01,100,100,3.36,CA,1607657717
280,Atar,20.52,-13.05,61.66,26,100,10.8,MR,1607657717
281,Parabel',58.7,81.48,-5.64,92,99,5.44,RU,1607657543
282,Coyhaique,-45.58,-72.07,50.0,71,75,4.7,CL,1607657717
283,Saint Anthony,45.02,-93.22,37.99,74,1,6.93,US,1607657718
284,Bandarbeyla,9.49,50.81,73.72,63,0,18.57,SO,1607657718
285,Yumen,40.28,97.2,23.63,92,49,22.5,CN,1607657718
286,Kununurra,-15.77,128.73,93.2,52,89,10.29,AU,1607657718
287,Fuxin,42.02,121.66,21.51,74,0,5.86,CN,1607657718
288,Angoche,-16.23,39.91,80.31,77,90,5.68,MZ,1607657581
289,Sept-Îles,50.2,-66.38,30.2,74,22,6.93,CA,1607657697
290,Mt. Pleasant,32.79,-79.86,51.01,100,1,3.33,US,1607657719
291,Panama City,8.99,-79.52,78.8,83,40,3.36,PA,1607657481
292,Forsytheganj,52.63,29.73,32.2,98,100,14.41,BY,1607657719
293,Baykit,61.67,96.37,-25.17,79,71,1.34,RU,1607657719
294,Krivosheino,57.34,83.93,-4.61,92,79,5.03,RU,1607657720
295,Caravelas,-17.71,-39.25,77.45,80,93,11.1,BR,1607657720
296,Portland,45.52,-122.68,42.01,80,75,6.93,US,1607657491
297,Sola,-13.88,167.55,87.8,79,75,2.24,VU,1607657720
298,Mbanza-Ngungu,-5.25,14.87,65.66,98,100,1.57,CD,1607657720
299,Phan Thiet,10.93,108.1,82.51,77,84,5.3,VN,1607657574
300,Osa,57.28,55.46,11.75,88,0,2.39,RU,1607657721
301,Marsh Harbour,26.54,-77.06,69.37,59,70,8.55,BS,1607657721
302,Katete,-0.78,29.75,60.53,81,5,2.82,UG,1607657721
303,Khunti,23.08,85.28,64.4,59,0,2.24,IN,1607657721
304,Vardø,70.37,31.11,34.29,90,81,18.23,NO,1607657721
305,Batemans Bay,-35.72,150.18,66.0,65,63,3.0,AU,1607657721
306,Ishigaki,24.34,124.16,77.0,88,75,13.87,JP,1607657722
307,Oddur,4.12,43.89,70.52,75,0,19.57,SO,1607657722
308,Pacific Grove,36.62,-121.92,52.0,81,90,9.17,US,1607657722
309,Isangel,-19.55,169.27,87.8,70,75,9.17,VU,1607657722
310,Labuhan,-6.88,112.21,84.45,75,100,12.06,ID,1607657722
311,Naze,28.37,129.48,73.4,69,40,11.41,JP,1607657722
312,Soma,39.19,27.61,53.6,66,75,6.93,TR,1607657722
313,Kamaishi,39.27,141.88,39.2,100,75,1.12,JP,1607657723
314,Severo-Kuril'sk,50.68,156.12,26.94,93,77,14.34,RU,1607657723
315,Klaksvík,62.23,-6.59,44.6,93,100,31.09,FO,1607657723
316,Gisborne,-38.65,178.0,78.01,37,78,10.0,NZ,1607657723
317,Maceió,-9.67,-35.74,73.4,94,75,2.24,BR,1607657723
318,Qaqortoq,60.72,-46.03,14.0,40,0,3.36,GL,1607657723
319,Tete,-16.16,33.59,77.0,100,75,3.6,MZ,1607657724
320,Bangassou,4.74,22.82,69.31,80,36,2.19,CF,1607657724
321,Salalah,17.02,54.09,75.2,27,0,13.87,OM,1607657724
322,Bodden Town,19.28,-81.25,75.2,73,20,10.29,KY,1607657527
323,Hambantota,6.12,81.12,78.8,88,20,2.24,LK,1607657724
324,Iqaluit,63.75,-68.51,21.2,73,75,10.29,CA,1607657724
325,Safaga,26.73,33.94,59.0,58,0,5.82,EG,1607657641
326,Maumere,-8.62,122.21,87.6,66,84,9.15,ID,1607657725
327,Chilca,-12.52,-76.74,66.2,82,20,11.41,PE,1607657725
328,Totness,5.88,-56.32,77.43,85,10,8.03,SR,1607657725
329,Puteyets,65.17,57.09,14.54,96,85,7.85,RU,1607657725
330,Dunedin,-45.87,170.5,57.99,48,74,17.0,NZ,1607657725
331,Big Spring,32.25,-101.48,66.2,24,40,13.87,US,1607657726
332,Tiarei,-17.53,-149.33,82.4,51,75,17.22,PF,1607657726
333,Raudeberg,61.99,5.14,44.01,64,86,5.5,NO,1607657726
334,Geraldton,-28.77,114.6,86.0,51,0,10.29,AU,1607657440
335,Hamilton,39.18,-84.53,48.99,66,1,6.93,US,1607657726
336,Bilma,18.69,12.92,67.57,28,0,10.09,NE,1607657726
337,Pocatello,42.87,-112.45,23.0,85,1,3.36,US,1607657726
338,Meulaboh,4.14,96.13,83.57,64,96,1.72,ID,1607657727
339,College,64.86,-147.8,1.4,77,90,0.6,US,1607657727
340,Bandundu Province,-3.32,17.37,70.47,97,90,2.57,CD,1607657727
341,Zasosna,50.63,38.4,18.82,90,0,11.25,RU,1607657727
342,Tupiza,-21.45,-65.72,61.54,41,17,3.53,BO,1607657727
343,Coquimbo,-29.95,-71.34,55.4,87,0,3.36,CL,1607657717
344,Provincia di Latina,41.45,13.1,46.99,87,100,5.01,IT,1607657593
345,Skibotn,69.39,20.27,32.0,90,40,18.34,NO,1607657728
346,Lavrentiya,65.58,-171.0,6.28,91,55,10.6,RU,1607657728
347,Atasū,48.68,71.64,1.44,93,16,8.01,KZ,1607657728
348,Alice Town,25.72,-79.3,70.14,52,0,10.13,BS,1607657728
349,Bilibino,68.05,166.44,-2.47,87,90,3.62,RU,1607657728
350,Inhambane,-23.86,35.38,77.0,78,40,9.17,MZ,1607657728
351,Chinna Salem,11.65,78.9,76.21,72,1,5.97,IN,1607657729
352,Mitake,35.42,137.13,57.99,44,92,1.74,JP,1607657729
353,Keningau,5.34,116.16,87.8,74,20,4.7,MY,1607657717
354,Gold Coast,-28.0,153.43,77.0,64,75,25.28,AU,1607657657
355,Abhā,18.22,42.51,48.2,87,0,0.83,SA,1607657545
356,Ustka,54.58,16.86,31.28,95,98,6.15,PL,1607657729
357,Rawson,-43.3,-65.1,63.84,39,57,28.01,AR,1607657450
358,Matara,5.95,80.54,83.53,67,42,1.74,LK,1607657730
359,Ojinaga,29.57,-104.42,64.4,52,40,13.87,MX,1607657730
360,Northam,51.03,-4.22,51.01,97,76,8.01,GB,1607657730
361,Anuradhapura,8.36,80.42,79.65,73,21,7.56,LK,1607657489
362,Emerald,-23.53,148.17,84.2,37,74,5.82,AU,1607657731
363,Chumikan,54.72,135.31,9.16,88,100,3.09,RU,1607657731
364,Nantucket,41.28,-70.1,37.4,74,1,5.82,US,1607657731
365,Nishihara,26.18,127.76,78.8,73,75,11.41,JP,1607657731
366,Mayo,38.89,-76.51,39.2,100,1,7.23,US,1607657731
367,La Ronge,55.1,-105.28,19.4,92,100,3.36,CA,1607657732
368,Talnakh,69.49,88.4,-25.6,74,0,6.71,RU,1607657732
369,Porto-Novo,6.5,2.6,78.75,87,51,7.18,BJ,1607657732
370,Ciudad Gustavo Díaz Ordaz,26.23,-98.58,70.0,81,1,3.0,MX,1607657732
371,Padrauna,26.9,83.98,71.08,47,0,3.04,IN,1607657732
372,Los Llanos de Aridane,28.66,-17.92,66.2,72,75,9.17,ES,1607657732
373,Olafsvik,64.89,-23.71,39.27,87,100,21.65,IS,1607657733
374,Zyryanka,65.75,150.85,-25.26,86,97,1.7,RU,1607657733
375,Vila Velha,-20.33,-40.29,79.0,94,90,2.24,BR,1607657733
376,Senno,59.53,33.92,20.34,91,94,8.03,RU,1607657733
377,Gīdolē,5.65,37.37,56.05,65,35,6.04,ET,1607657733
378,Mount Isa,-20.73,139.5,96.8,22,90,13.87,AU,1607657438
379,Dale,38.17,-86.99,53.6,54,1,8.05,US,1607657733
380,Cabatuan,10.88,122.49,86.32,73,57,6.89,PH,1607657734
381,Yibin,28.77,104.62,49.98,71,100,2.93,CN,1607657608
382,Lenoir City,35.8,-84.26,46.0,89,0,2.77,US,1607657734
383,Kulhudhuffushi,6.62,73.07,82.08,73,18,9.53,MV,1607657595
384,Bathsheba,13.22,-59.52,77.0,83,20,11.41,BB,1607657734
385,Tarakan,3.3,117.63,81.75,77,60,2.35,ID,1607657734
386,Bealanana,-14.55,48.73,66.6,90,100,0.98,MG,1607657735
387,Whitehorse,60.72,-135.05,14.0,85,90,17.22,CA,1607657735
388,Presidencia Roque Sáenz Peña,-26.79,-60.44,80.01,49,0,1.01,AR,1607657735
389,Calama,-22.47,-68.93,53.6,20,0,6.93,CL,1607657735
390,Lyuban',52.8,28.0,33.44,94,100,15.28,BY,1607657735
391,Oussouye,12.48,-16.55,73.27,37,47,6.89,SN,1607657736
392,Sayansk,54.11,102.16,-1.1,90,100,5.59,RU,1607657736
393,Ixtapa,20.7,-105.2,73.99,88,40,1.88,MX,1607657736
394,Conakry,9.54,-13.68,81.5,81,31,7.02,GN,1607657478
395,Westport,41.14,-73.36,37.4,69,1,4.7,US,1607657466
396,Pahrump,36.21,-115.98,44.01,21,0,5.99,US,1607657565
397,Dicabisagan,17.08,122.42,84.88,68,4,3.65,PH,1607657737
398,Coos Bay,43.37,-124.22,43.0,100,90,5.82,US,1607657737
399,San Vicente,-26.62,-54.13,68.4,61,0,3.31,AR,1607657737
400,Copiapó,-27.37,-70.33,57.13,78,8,2.86,CL,1607657534
401,Khandyga,62.67,135.6,-32.08,84,100,2.39,RU,1607657737
402,Vrangel',42.73,133.08,32.72,78,0,7.9,RU,1607657737
403,Umm Kaddadah,13.6,26.69,67.84,25,32,14.92,SD,1607657738
404,Oyama,36.3,139.8,57.99,66,75,2.24,JP,1607657738
405,Malakanagiri,18.35,81.9,76.19,56,22,1.19,IN,1607657720
406,Pueblo Nuevo Viñas,14.23,-90.47,61.0,87,75,16.11,GT,1607657738
407,Camocim,-2.9,-40.84,76.66,87,84,10.27,BR,1607657727
408,Paamiut,61.99,-49.67,25.68,80,2,11.99,GL,1607657443
409,Hay River,60.82,-115.8,3.2,84,100,5.82,CA,1607657739
410,Oudtshoorn,-33.59,22.2,59.0,93,20,3.36,ZA,1607657739
411,Caçador,-26.78,-51.02,63.21,88,1,6.91,BR,1607657739
412,Matagami,49.75,-77.63,28.4,100,90,8.05,CA,1607657555
413,Pontianak,-0.03,109.33,88.86,60,56,7.23,ID,1607657740
414,Kiryat Gat,31.61,34.76,55.99,64,0,5.79,IL,1607657644
415,Penzance,50.12,-5.54,51.8,100,80,18.34,GB,1607657545
416,Kutum,14.2,24.67,58.33,34,93,6.67,SD,1607657740
417,Huarmey,-10.07,-78.15,66.88,85,100,6.55,PE,1607657741
418,Tupelo,34.26,-88.7,48.2,81,1,6.55,US,1607657531
419,Pangkalanbuun,-2.68,111.62,93.27,47,100,5.53,ID,1607657741
420,Cangzhou,38.32,116.87,41.9,55,24,5.53,CN,1607657741
421,Santiago,-33.46,-70.65,62.01,55,0,5.82,CL,1607657482
422,Cidreira,-30.18,-50.21,71.01,84,0,21.34,BR,1607657741
423,Haines Junction,60.75,-137.51,12.2,92,100,1.12,CA,1607657742
424,Korla,41.76,86.15,28.71,87,0,2.01,CN,1607657742
425,Bereda,43.27,-7.54,59.0,100,100,13.0,ES,1607657742
426,Rayachoti,14.05,78.75,73.4,88,0,5.21,IN,1607657742
427,Seryshevo,51.09,128.38,5.54,94,100,2.93,RU,1607657742
428,Tsiroanomandidy,-18.77,46.03,70.03,84,100,1.41,MG,1607657743
429,Elizabethtown,37.69,-85.86,51.01,65,1,3.36,US,1607657743
430,San Quintín,30.48,-115.95,59.4,81,0,10.04,MX,1607657464
431,Qinzhou,21.95,108.62,71.2,53,88,4.38,CN,1607657743
432,Grand-Lahou,5.14,-5.02,78.37,86,51,9.51,CI,1607657744
433,Vizinga,61.07,50.1,14.85,91,0,5.77,RU,1607657744
434,Buraidah,26.33,43.98,50.0,100,0,4.7,SA,1607657509
435,Matiguás,12.84,-85.46,65.37,93,45,5.03,NI,1607657744
436,Le Vauclin,14.55,-60.84,73.99,88,20,11.54,MQ,1607657744
437,Potenza,40.64,15.81,39.99,80,100,3.74,IT,1607657745
438,Bako,5.78,36.57,62.35,60,77,3.83,ET,1607657745
439,Amapá,1.0,-52.0,71.26,98,29,1.79,BR,1607657745
440,Beringovskiy,63.05,179.32,24.04,95,100,23.87,RU,1607657745
441,Liuzhou,24.31,109.39,59.22,60,98,6.55,CN,1607657745
442,Aranda de Duero,41.67,-3.69,54.72,89,100,23.31,ES,1607657745
443,Pombas,17.15,-25.02,71.6,68,40,14.99,CV,1607657746
444,Atherton,53.52,-2.49,46.99,87,100,4.0,GB,1607657746
445,Deputatsky,69.3,139.9,-34.02,82,8,4.18,RU,1607657746
446,Purranque,-40.92,-73.17,50.0,93,13,5.82,CL,1607657500
447,Gouré,13.98,10.27,71.49,22,35,8.57,NE,1607657746
448,Mercedes,-34.65,-59.43,81.0,44,85,11.99,AR,1607657746
449,Cookeville,36.16,-85.5,53.6,70,40,6.6,US,1607657634
450,Sulphur,30.24,-93.38,60.8,82,1,6.93,US,1607657467
451,Lebanon,36.21,-86.29,57.2,50,1,10.29,US,1607657665
452,Verāval,20.9,70.37,75.13,82,88,5.19,IN,1607657747
453,Missoula,47.02,-113.8,30.0,79,1,3.36,US,1607657451
454,Lékoni,-1.58,14.26,70.39,90,89,4.88,GA,1607657747
455,Tagusao,9.19,117.81,87.21,65,21,3.87,PH,1607657748
456,Palora,-1.7,-77.93,65.75,94,99,3.04,EC,1607657748
457,Maragogi,-9.01,-35.22,76.84,79,30,9.4,BR,1607657602
458,Porto Walter,-8.27,-72.74,74.97,84,100,1.14,BR,1607657748
459,Padang,-0.95,100.35,84.97,60,100,5.73,ID,1607657748
460,Cockburn Town,21.46,-71.14,76.93,77,1,17.74,TC,1607657532
461,La Maná,-0.93,-79.22,46.4,93,40,3.36,EC,1607657748
462,The Valley,18.22,-63.06,79.0,78,20,5.82,AI,1607657749
463,Morden,49.19,-98.1,30.2,86,100,3.36,CA,1607657490
464,Porangatu,-13.44,-49.15,71.73,77,89,1.23,BR,1607657749
465,Ilebo,-4.32,20.58,70.14,93,98,0.31,CD,1607657749
466,Dingle,11.0,122.67,85.86,75,73,7.65,PH,1607657749
467,Oktyabr'skoye,43.06,44.74,28.4,92,26,4.47,RU,1607657749
468,Yuncheng,35.02,110.99,41.68,60,100,3.96,CN,1607657749
469,Baharly,38.44,57.43,24.8,85,6,2.59,TM,1607657750
470,Bonito,-21.12,-56.48,73.47,44,9,2.37,BR,1607657750
471,Ratne,51.67,24.53,33.8,97,90,6.71,UA,1607657750
472,Xinzhi,36.5,111.7,40.87,53,100,8.14,CN,1607657750
473,Buenavista,8.98,125.41,89.24,59,13,2.68,PH,1607657750
474,Tilichiki,60.47,166.1,18.66,92,100,12.88,RU,1607657750
475,Marsá Maţrūḩ,31.35,27.25,60.69,59,0,8.39,EG,1607657751
476,Cranbrook,49.5,-115.77,28.4,92,90,2.24,CA,1607657751
477,Koumac,-20.57,164.28,84.97,64,100,10.67,NC,1607657751
478,Batagay-Alyta,67.8,130.41,-27.35,84,93,1.77,RU,1607657751
479,Strezhevoy,60.73,77.59,6.8,84,75,3.27,RU,1607657751
480,Divnomorskoye,44.5,38.14,45.23,63,100,7.67,RU,1607657751
481,Chichimila,20.62,-88.22,61.97,89,55,2.66,MX,1607657752
482,Tura,25.52,90.22,73.26,51,0,0.67,IN,1607657752
483,Kapustin Yar,48.58,45.74,15.12,85,0,7.78,RU,1607657752
484,Tsimmerbude,54.67,20.13,30.2,92,90,8.95,RU,1607657752
485,Xifeng,42.74,124.72,20.21,80,0,4.97,CN,1607657752
486,Zhigansk,66.77,123.37,-31.94,83,99,9.08,RU,1607657753
487,Kampot,10.62,104.18,82.4,74,40,6.93,KH,1607657753
488,Kyzyl-Mazhalyk,51.13,90.6,4.01,80,100,4.16,RU,1607657753
489,Nouakchott,18.09,-15.98,64.4,22,99,9.17,MR,1607657551
490,Frontera,26.93,-101.45,64.38,42,1,2.1,MX,1607657753
491,Malanje,-9.54,16.34,61.99,99,99,1.92,AO,1607657753
492,Kavaratti,10.57,72.64,84.2,74,40,6.93,IN,1607657754
493,Dali,25.7,100.18,57.02,50,94,4.92,CN,1607657754
494,Leer,8.3,30.14,73.87,59,18,2.75,SS,1607657754
495,Pāsighāt,28.07,95.33,73.22,44,43,2.06,IN,1607657754
496,Otradnoye,59.78,30.82,17.01,78,0,8.95,RU,1607657754
497,Helong,42.54,129.0,28.72,79,56,6.55,CN,1607657755
498,Maizuru,35.45,135.33,59.0,71,75,3.36,JP,1607657755
499,Río Gallegos,-51.62,-69.22,50.0,87,0,2.24,AR,1607657755
500,Sassandra,4.95,-6.08,77.59,87,16,6.89,CI,1607657755
501,La Ciotat,43.17,5.6,39.2,66,39,5.82,FR,1607657755
502,Cayenne,4.93,-52.33,77.0,100,75,7.49,GF,1607657755
503,São Miguel do Araguaia,-13.28,-50.16,71.49,89,100,7.2,BR,1607657756
504,Vöcklabruck,48.02,13.65,34.0,91,90,1.01,AT,1607657756
505,Jardim,-21.48,-56.14,74.21,39,4,4.16,BR,1607657756
506,San Fernando,15.03,120.69,87.8,66,75,9.17,PH,1607657756
507,Morondava,-20.28,44.28,80.76,74,55,6.64,MG,1607657756
508,Sémbé,1.65,14.58,70.03,91,53,2.39,CG,1607657757
509,Tual,-5.67,132.75,84.63,65,4,3.38,ID,1607657757
510,Baní,18.28,-70.33,73.0,90,12,1.99,DO,1607657757
511,Washington,47.5,-120.5,34.0,92,100,1.45,US,1607657483
512,Teguise,29.06,-13.56,64.4,82,75,12.75,ES,1607657758
513,Khanpur,28.65,70.66,65.52,50,82,17.58,PK,1607657758
514,Saint-Augustin,51.23,-58.65,32.07,98,100,7.27,CA,1607657759
515,Anjozorobe,-18.4,47.87,64.4,93,40,3.36,MG,1607657759
516,Eloy,32.76,-111.55,55.0,81,1,4.7,US,1607657759
517,Tiznit Province,29.58,-9.5,54.99,47,11,1.74,MA,1607657759
518,Peace River,56.25,-117.29,14.0,85,5,12.75,CA,1607657759
519,Atikokan,48.76,-91.62,26.19,95,100,6.51,CA,1607657759
520,Norton Shores,43.17,-86.26,37.99,69,20,5.82,US,1607657588
521,Münster,51.96,7.63,33.01,88,0,4.7,DE,1607657760
522,Rio Grande,-32.03,-52.1,68.0,93,0,16.06,BR,1607657720
